study_id,site_id,crop,variety,management,country,latitude,longitude,X_UTM,Y_UTM,zone_UTM,sampling_start_month,sampling_end_month,sampling_year,field_size,yield,yield_units,yield2,yield2_units,yield_treatments_no_pollinators,yield_treatments_pollen_supplement,yield_treatments_no_pollinators2,yield_treatments_pollen_supplement2,fruits_per_plant,fruit_weight,plant_density,seeds_per_fruit,seeds_per_plant,seed_weight,pollinator_richness,richness_estimator_method,abundance,ab_honeybee,ab_bombus,ab_wildbees,ab_syrphids,ab_humbleflies,ab_other_flies,ab_beetles,ab_lepidoptera,ab_nonbee_hymenoptera,ab_others,total_sampled_area,total_sampled_time,visitation_rate_units,visitation_rate,visit_honeybee,visit_bombus,visit_wildbees,visit_syrphids,visit_humbleflies,visit_other_flies,visit_beetles,visit_lepidoptera,visit_nonbee_hymenoptera,visit_others,Publication,Credit,Email_contact
Reemer_Kleijn_2010_Apple,Dreumel,Malus domestica,NA,conventional,Netherlands,51.86754489,5.430759851,NA,NA,NA,4,5,2010,NA,NA,NA,NA,NA,NA,NA,NA,NA,NA,NA,NA,NA,NA,NA,30.188,Chao1,40,8,6,18,8,0,0,0,0,0,0,NA,NA,NA,NA,NA,NA,NA,NA,NA,NA,NA,NA,NA,NA,NA,David Kleijn,David.Kleijn@wur.nl
Reemer_Kleijn_2010_Apple,Echteld,Malus domestica,NA,conventional,Netherlands,51.89446027,5.503424942,NA,NA,NA,4,5,2010,NA,NA,NA,NA,NA,NA,NA,NA,NA,NA,NA,NA,NA,NA,NA,19.938,Chao1,97,69,5,9,14,0,0,0,0,0,0,NA,NA,NA,NA,NA,NA,NA,NA,NA,NA,NA,NA,NA,NA,NA,David Kleijn,David.Kleijn@wur.nl
Reemer_Kleijn_2010_Apple,Heeselt,Malus domestica,NA,conventional,Netherlands,51.81361496,5.343697266,NA,NA,NA,4,5,2010,NA,NA,NA,NA,NA,NA,NA,NA,NA,NA,NA,NA,NA,NA,NA,28.157,Chao1,132,93,15,18,6,0,0,0,0,0,0,NA,NA,NA,NA,NA,NA,NA,NA,NA,NA,NA,NA,NA,NA,NA,David Kleijn,David.Kleijn@wur.nl
Reemer_Kleijn_2010_Apple,Hurwenen,Malus domestica,NA,conventional,Netherlands,51.79560244,5.28573089,NA,NA,NA,4,5,2010,NA,NA,NA,NA,NA,NA,NA,NA,NA,NA,NA,NA,NA,NA,NA,36.02,Chao1,51,19,8,14,10,0,0,0,0,0,0,NA,NA,NA,NA,NA,NA,NA,NA,NA,NA,NA,NA,NA,NA,NA,David Kleijn,David.Kleijn@wur.nl
Reemer_Kleijn_2010_Apple,Varik,Malus domestica,NA,conventional,Netherlands,51.83159882,5.372694962,NA,NA,NA,4,5,2010,NA,NA,NA,NA,NA,NA,NA,NA,NA,NA,NA,NA,NA,NA,NA,24.034,Chao1,83,33,16,24,10,0,0,0,0,0,0,NA,NA,NA,NA,NA,NA,NA,NA,NA,NA,NA,NA,NA,NA,NA,David Kleijn,David.Kleijn@wur.nl
Reemer_Kleijn_2010_Apple,Zaltbommel,Malus domestica,NA,conventional,Netherlands,51.81355054,5.256687134,NA,NA,NA,4,5,2010,NA,NA,NA,NA,NA,NA,NA,NA,NA,NA,NA,NA,NA,NA,NA,24.595,Chao1,37,3,5,27,2,0,0,0,0,0,0,NA,NA,NA,NA,NA,NA,NA,NA,NA,NA,NA,NA,NA,NA,NA,David Kleijn,David.Kleijn@wur.nl
