study_id,site_id,crop,variety,management,country,latitude,longitude,X_UTM,Y_UTM,zone_UTM,sampling_start_month,sampling_end_month,sampling_year,field_size,yield,yield_units,yield2,yield2_units,yield_treatments_no_pollinators,yield_treatments_pollen_supplement,yield_treatments_no_pollinators2,yield_treatments_pollen_supplement2,fruits_per_plant,fruit_weight,plant_density,seeds_per_fruit,seeds_per_plant,seed_weight,observed_pollinator_richness,other_pollinator_richness,other_richness_estimator_method,richness_restriction,abundance,ab_honeybee,ab_bombus,ab_wildbees,ab_syrphids,ab_humbleflies,ab_other_flies,ab_beetles,ab_lepidoptera,ab_nonbee_hymenoptera,ab_others,total_sampled_area,total_sampled_time,visitation_rate_units,visitation_rate,visit_honeybee,visit_bombus,visit_wildbees,visit_syrphids,visit_humbleflies,visit_other_flies,visit_beetles,visit_lepidoptera,visit_nonbee_hymenoptera,visit_others,Publication,Credit,Email_contact
David_Kleijn_Pyrus_communis_Netherlands_2010,Dreumel_P5,Pyrus communis,NA,conventional,Netherlands,51.84957276,5.416229109,NA,NA,NA,4,5,2010,NA,NA,NA,NA,NA,NA,NA,NA,NA,NA,NA,NA,NA,NA,NA,10,27.053,Chao1,NA,19,0,0,14,5,0,0,0,0,0,0,NA,NA,NA,NA,NA,NA,NA,NA,NA,NA,NA,NA,NA,NA,NA,David Kleijn,David.Kleijn@wur.nl
David_Kleijn_Pyrus_communis_Netherlands_2010,Echteld_P6,Pyrus communis,NA,conventional,Netherlands,51.89446027,5.503424942,NA,NA,NA,4,5,2010,NA,NA,NA,NA,NA,NA,NA,NA,NA,NA,NA,NA,NA,NA,NA,10,16.042,Chao1,NA,30,10,1,14,5,0,0,0,0,0,0,NA,NA,NA,NA,NA,NA,NA,NA,NA,NA,NA,NA,NA,NA,NA,David Kleijn,David.Kleijn@wur.nl
David_Kleijn_Pyrus_communis_Netherlands_2010,Heeselt_P4,Pyrus communis,NA,conventional,Netherlands,51.81361943,5.358198976,NA,NA,NA,4,5,2010,NA,NA,NA,NA,NA,NA,NA,NA,NA,NA,NA,NA,NA,NA,NA,18,25.935,Chao1,NA,49,7,3,29,10,0,0,0,0,0,0,NA,NA,NA,NA,NA,NA,NA,NA,NA,NA,NA,NA,NA,NA,NA,David Kleijn,David.Kleijn@wur.nl
David_Kleijn_Pyrus_communis_Netherlands_2010,Hurwenen_P3,Pyrus communis,NA,conventional,Netherlands,51.80460245,5.300209484,NA,NA,NA,4,5,2010,NA,NA,NA,NA,NA,NA,NA,NA,NA,NA,NA,NA,NA,NA,NA,12,17.786,Chao1,NA,28,4,2,18,4,0,0,0,0,0,0,NA,NA,NA,NA,NA,NA,NA,NA,NA,NA,NA,NA,NA,NA,NA,David Kleijn,David.Kleijn@wur.nl
David_Kleijn_Pyrus_communis_Netherlands_2010,Zaltbommel_P1,Pyrus communis,NA,conventional,Netherlands,51.81355054,5.256687134,NA,NA,NA,4,5,2010,NA,NA,NA,NA,NA,NA,NA,NA,NA,NA,NA,NA,NA,NA,NA,18,22.425,Chao1,NA,60,1,12,27,19,0,1,0,0,0,0,NA,NA,NA,NA,NA,NA,NA,NA,NA,NA,NA,NA,NA,NA,NA,David Kleijn,David.Kleijn@wur.nl
David_Kleijn_Pyrus_communis_Netherlands_2010,Zaltbommel_P2,Pyrus communis,NA,conventional,Netherlands,51.81355054,5.256687134,NA,NA,NA,4,5,2010,NA,NA,NA,NA,NA,NA,NA,NA,NA,NA,NA,NA,NA,NA,NA,16,28.005,Chao1,NA,50,4,11,25,10,0,0,0,0,0,0,NA,NA,NA,NA,NA,NA,NA,NA,NA,NA,NA,NA,NA,NA,NA,David Kleijn,David.Kleijn@wur.nl
