study_id,site_id,crop,variety,management,country,latitude,longitude,X_UTM,Y_UTM,zone_UTM,sampling_start_month,sampling_end_month,sampling_year,field_size,yield,yield_units,yield2,yield2_units,yield_treatments_no_pollinators,yield_treatments_pollen_supplement,yield_treatments_no_pollinators2,yield_treatments_pollen_supplement2,fruits_per_plant,fruit_weight,plant_density,seeds_per_fruit,seeds_per_plant,seed_weight,observed_pollinator_richness,other_pollinator_richness,other_richness_estimator_method,richness_restriction,abundance,ab_honeybee,ab_bombus,ab_wildbees,ab_syrphids,ab_humbleflies,ab_other_flies,ab_beetles,ab_lepidoptera,ab_nonbee_hymenoptera,ab_others,total_sampled_area,total_sampled_time,visitation_rate_units,visitation_rate,visit_honeybee,visit_bombus,visit_wildbees,visit_syrphids,visit_humbleflies,visit_other_flies,visit_beetles,visit_lepidoptera,visit_nonbee_hymenoptera,visit_others,Publication,Credit,Email_contact
Jeroen_Scheper_Brassica_napus_Netherlands_2011,Bussloo,Brassica napus,NA,conventional,Netherlands,52.19518318,6.13862974,304441,5786607,32,4,5,2011,5.290580383,NA,NA,NA,NA,NA,NA,NA,NA,NA,NA,NA,NA,NA,NA,15,20.967,Chao1,NA,184,148,15,3,17,0,0,0,0,1,0,300,30,NA,NA,NA,NA,NA,NA,NA,NA,NA,NA,NA,NA,NA,Jeroen Scheper,jeroen.scheper@wur.nl
Jeroen_Scheper_Brassica_napus_Netherlands_2011,Deventer,Brassica napus,NA,conventional,Netherlands,52.24292139,6.240981534,311637,5791644,32,4,5,2011,2.827555729,NA,NA,NA,NA,NA,NA,NA,NA,NA,NA,NA,NA,NA,NA,15,34.961,Chao1,NA,70,30,28,4,8,0,0,0,0,0,0,300,30,NA,NA,NA,NA,NA,NA,NA,NA,NA,NA,NA,NA,NA,Jeroen Scheper,jeroen.scheper@wur.nl
Jeroen_Scheper_Brassica_napus_Netherlands_2011,Doetinchem,Brassica napus,NA,conventional,Netherlands,51.96360199,6.396322938,321126,5760192,32,4,5,2011,1.824742262,NA,NA,NA,NA,NA,NA,NA,NA,NA,NA,NA,NA,NA,NA,19,26.961,Chao1,NA,207,51,116,7,31,0,0,0,0,2,0,300,30,NA,NA,NA,NA,NA,NA,NA,NA,NA,NA,NA,NA,NA,Jeroen Scheper,jeroen.scheper@wur.nl
Jeroen_Scheper_Brassica_napus_Netherlands_2011,Gelselaar,Brassica napus,NA,conventional,Netherlands,52.16619935,6.541264203,331845,5782374,32,4,5,2011,4.9008586,NA,NA,NA,NA,NA,NA,NA,NA,NA,NA,NA,NA,NA,NA,17,22.958,Chao1,NA,143,39,68,0,36,0,0,0,0,0,0,300,30,NA,NA,NA,NA,NA,NA,NA,NA,NA,NA,NA,NA,NA,Jeroen Scheper,jeroen.scheper@wur.nl
Jeroen_Scheper_Brassica_napus_Netherlands_2011,Kloosterhaar,Brassica napus,NA,conventional,Netherlands,52.51332516,6.688223899,343128,5820646,32,4,5,2011,11.4128322,NA,NA,NA,NA,NA,NA,NA,NA,NA,NA,NA,NA,NA,NA,3,3.8,Chao1,NA,5,3,0,0,2,0,0,0,0,0,0,300,30,NA,NA,NA,NA,NA,NA,NA,NA,NA,NA,NA,NA,NA,Jeroen Scheper,jeroen.scheper@wur.nl
Jeroen_Scheper_Brassica_napus_Netherlands_2011,Lengel,Brassica napus,NA,conventional,Netherlands,51.89166091,6.274305188,312445,5752500,32,4,5,2011,7.48418037,NA,NA,NA,NA,NA,NA,NA,NA,NA,NA,NA,NA,NA,NA,11,11.496,Chao1,NA,116,88,10,3,13,0,0,0,0,2,0,300,30,NA,NA,NA,NA,NA,NA,NA,NA,NA,NA,NA,NA,NA,Jeroen Scheper,jeroen.scheper@wur.nl
Jeroen_Scheper_Brassica_napus_Netherlands_2011,Lettele,Brassica napus,NA,conventional,Netherlands,52.28454438,6.250727303,312478,5796247,32,4,5,2011,6.237294824,NA,NA,NA,NA,NA,NA,NA,NA,NA,NA,NA,NA,NA,NA,14,31.824,Chao1,NA,102,44,35,4,19,0,0,0,0,0,0,300,30,NA,NA,NA,NA,NA,NA,NA,NA,NA,NA,NA,NA,NA,Jeroen Scheper,jeroen.scheper@wur.nl
Jeroen_Scheper_Brassica_napus_Netherlands_2011,Schalkhaar,Brassica napus,NA,conventional,Netherlands,52.28841983,6.19339534,308585,5796828,32,4,5,2011,7.456745192,NA,NA,NA,NA,NA,NA,NA,NA,NA,NA,NA,NA,NA,NA,13,20.907,Chao1,NA,86,32,13,1,40,0,0,0,0,0,0,300,30,NA,NA,NA,NA,NA,NA,NA,NA,NA,NA,NA,NA,NA,Jeroen Scheper,jeroen.scheper@wur.nl
